{

    "paradas_ida": [

        {
            "nombre": "Parque de Mayo",
            "coords": {
            	"lng":-62.26874,
            	"lat":-38.7001
            }
        }
        , {
            "nombre": "Uns - Av. Alem",
            "coords": {
            	"lng":-62.2704 ,
            	"lat":-38.7024}
        }, {
            "nombre": "Alem 630",
            "coords": {
            	"lng":-62.26507 ,
            	"lat":-38.7083}
        }, {
            "nombre": "19  de Mayo 284",
            "coords": {
            	"lng":-62.26600 ,
            	"lat":-38.7128}
        }, {
            "nombre": "Estomba 287",
            "coords": {
            	"lng":-62.26934 ,
            	"lat":-38.7160}
        }, {
            "nombre": "Banco Nacion",
            "coords": {
            	"lng":-62.26723 ,
            	"lat":-38.7176}
        }, {
            "nombre": "Chiclana 155",
            "coords": {
            	"lng":-62.26465 ,
            	"lat":-38.7195}
        }, {
            "nombre": "Chiclana 599",
            "coords": {
            	"lng":-62.25985 ,
            	"lat":-38.7232}
        }, {
            "nombre": "Chiclana 825",
            "coords": {
            	"lng":-62.25723 ,
            	"lat":-38.7253}
        }, {
            "nombre": "Montevideo 81",
            "coords": {
            	"lng":-62.25459 ,
            	"lat":-38.7292}
        }, {
            "nombre": "Supermercado Vea",
            "coords": {
            	"lng":-62.25287 ,
            	"lat":-38.7306}
        }, {
            "nombre": "Matheu 91",
            "coords": {
            	"lng":-62.24455 ,
            	"lat":-38.7342}
        }, {
            "nombre": "Maipú 2182",
            "coords": {
            	"lng":-62.23428 ,
            	"lat":-38.7423}
        }, {
            "nombre": "Punta Alta 485",
            "coords": {
            	"lng":-62.23753 ,
            	"lat":-38.7336}
        }, {
            "nombre": "Punta Alta 680",
            "coords": {
            	"lng":-62.23551 ,
            	"lat":-38.7320}
        }, {
            "nombre": "Necochea 757",
            "coords": {
            	"lng":-62.23376 ,
            	"lat":-38.7322}
        }, {
            "nombre": "Necochea 1000",
            "coords": {
            	"lng":-62.23149 ,
            	"lat":-38.7304}
        }, {
            "nombre": "Hospital Penna",
            "coords": {
            	"lng":-62.2281 ,
            	"lat":-38.7291}
        }, {
            "nombre": "Av. Lainez 2649",
            "coords": {
            	"lng":-62.22503 ,
            	"lat":-38.7314}
        }, {
            "nombre": "Av. Lainez 2895",
            "coords": {
            	"lng":-62.22275 ,
            	"lat":-38.7331}
        }, {
            "nombre": "Rincón 3333",
            "coords": {
            	"lng":-62.21876 ,
            	"lat":-38.7375}
        }, {
            "nombre": "Rincón 3520",
            "coords": {
            	"lng":-62.2168 ,
            	"lat":-38.7391}
        }, {
            "nombre": "Rincón 3715",
            "coords": {
            	"lng":-62.21496 ,
            	"lat":-38.7408}
        }, {
            "nombre": "Rincón 3897",
            "coords": {
            	"lng":-62.21304 ,
            	"lat":-38.7422}
        }, {
            "nombre": "Coca-Cola",
            "coords": {
            	"lng":-62.20783 ,
            	"lat":-38.7460}
        }, {
            "nombre": "Rafael Obligado 4800",
            "coords": {
            	"lng":-62.19662 ,
            	"lat":-38.7506}
        }, {
            "nombre": "Rafael Obligado 5100",
            "coords": {
            	"lng":-62.1887 ,
            	"lat":-38.7522}
        }, {
            "nombre": "Rafael Obligado 5800",
            "coords": {
            	"lng":-62.17823 ,
            	"lat":-38.7544}
        }, {
            "nombre": "Rafael Obligado 6000",
            "coords": {
            	"lng":-62.17471 ,
            	"lat":-38.7551}
        }, {
            "nombre": "Rotonda Punta Blanca",
            "coords": {
            	"lng":-62.17502 ,
            	"lat":-38.7568}
        }, {
            "nombre": "Portal  del Este",
            "coords": {
            	"lng":-62.16648 ,
            	"lat":-38.7629}
        }, {
            "nombre": "Agromax",
            "coords": {
            	"lng":-62.14762 ,
            	"lat":-38.7697}
        }, {
            "nombre": "Pago Chico",
            "coords": {
            	"lng":-62.11536 ,
            	"lat":-38.7814}
        }, {
            "nombre": "Barrio El Porvenir",
            "coords": {
            	"lng":-62.11338 ,
            	"lat":-38.7893}
        }, {
            "nombre": "Villa Arias 1°",
            "coords": {
            	"lng":-62.10798 ,
            	"lat":-38.8080}
        }, {
            "nombre": "Villa Arias 2°",
            "coords": {
            	"lng":-62.10723 ,
            	"lat":-38.81066}
        }, {
            "nombre": "Villa Arias 3°",
            "coords": {
            	"lng":-62.10651 ,
            	"lat":-38.81308}
        }, {
            "nombre": "Villa  del Mar",
            "coords": {
            	"lng":-62.09411 ,
            	"lat":-38.84261}
        }, {
            "nombre": "Rio Juramento y Roca",
            "coords": {
            	"lng":-62.08976 ,
            	"lat":-38.84682}
        }, {
            "nombre": "Av. Paso 3800",
            "coords": {
            	"lng":-62.08671 ,
            	"lat":-38.8472}
        }, {
            "nombre": "Av. Paso 3600",
            "coords": {
            	"lng":-62.08624 ,
            	"lat":-38.84903}
        }, {
            "nombre": "Av. Paso y Rio Bermejo",
            "coords": {
            	"lng":-62.08573 ,
            	"lat":-38.8509}
        }, {
            "nombre": "Av. Paso 3000",
            "coords": {
            	"lng":-62.08472 ,
            	"lat":-38.85458}
        }, {
            "nombre": "Av. Paso 2800",
            "coords": {
            	"lng":-62.08421 ,
            	"lat":-38.85651}
        }, {
            "nombre": "Av. Paso 2600",
            "coords": {
            	"lng":-62.08404 ,
            	"lat":-38.85709}
        }, {
            "nombre": "Av. Paso 2400",
            "coords": {
            	"lng":-62.0833 ,
            	"lat":-38.86003}
        }, {
            "nombre": "Av. Paso 2100",
            "coords": {
            	"lng":-62.08245 ,
            	"lat":-38.86289}
        }, {
            "nombre": "Av. Paso 1900",
            "coords": {
            	"lng":-62.08198 ,
            	"lat":-38.86475}
        }, {
            "nombre": "Av. Paso 1600",
            "coords": {
            	"lng":-62.08125 ,
            	"lat":-38.86737}
        }, {
            "nombre": "Av. Paso y Quintana",
            "coords": {
            	"lng":-62.08073 ,
            	"lat":-38.86941}
        }, {
            "nombre": "Av. Paso y 11 de Sept",
            "coords": {
            	"lng":-62.08011 ,
            	"lat":-38.87166}
        }, {
            "nombre": "Av. Paso 1000",
            "coords": {
            	"lng":-62.07948 ,
            	"lat":-38.8738}
        }, {
            "nombre": "Av. Paso 800",
            "coords": {
            	"lng":-62.07875 ,
            	"lat":-38.87655}
        }, {
            "nombre": "Pellegrini y Roca",
            "coords": {
            	"lng":-62.08146 ,
            	"lat":-38.8771}
        }, {
            "nombre": "Pellegrini y Colon",
            "coords": {
            	"lng":-62.08458 ,
            	"lat":-38.87765}
        }, {
            "nombre": "Colon y Rivadavia",
            "coords": {
            	"lng":-62.0836 ,
            	"lat":-38.88126}
        }, {
            "nombre": "Colon y Urquiza",
            "coords": {
            	"lng":-62.08279 ,
            	"lat":-38.88388}
        }, {
            "nombre": "Urquiza 250",
            "coords": {
            	"lng":-62.07906 ,
            	"lat":-38.88329}
        }, {
            "nombre": "Urquiza 415",
            "coords": {
            	"lng":-62.07679 ,
            	"lat":-38.88293}
        }, {
            "nombre": "Irigoyen y Brown",
            "coords": {
            	"lng":-62.07565 ,
            	"lat":-38.88100}
        }, {
            "nombre": "Luiggi y Espora",
            "coords": {
            	"lng":-62.0736 ,
            	"lat":-38.87711}
        }, {
            "nombre": "Terminal Punta Alta",
            "coords": {
            	"lng":-62.07133 ,
            	"lat":-38.87674}
        }
    ],


    "paradas_vuelta": [


        {
            "nombre": "Terminal Punta Alta",
            "coords": {
            	"lng":-62.07133 ,
            	"lat":-38.87674}
        }, {
            "nombre": "Mitre 440",
            "coords": {
            	"lng":-62.07709 ,
            	"lat":-38.87893}
        }, {
            "nombre": "Mitre 260",
            "coords": {
            	"lng":-62.08017 ,
            	"lat":-38.87942}
        }, {
            "nombre": "Mitre 126",
            "coords": {
            	"lng":-62.08187 ,
            	"lat":-38.87968}
        }, {
            "nombre": "Mitre y Humberto",
            "coords": {
            	"lng":-62.08222 ,
            	"lat":-38.87973}
        }, {
            "nombre": "Humberto y Pellegrini",
            "coords": {
            	"lng":-62.08301 ,
            	"lat":-38.87746}
        }, {
            "nombre": "Humberto y 9 de Julio",
            "coords": {
            	"lng":-62.08368 ,
            	"lat":-38.87485}
        }, {
            "nombre": "Humberto y 11 de Sept",
            "coords": {
            	"lng":-62.08428 ,
            	"lat":-38.87254}
        }, {
            "nombre": "Humberto y Patagones",
            "coords": {
            	"lng":-62.08458 ,
            	"lat":-38.87140}
        }, {
            "nombre": "Patagones y Roca",
            "coords": {
            	"lng":-62.08328 ,
            	"lat":-38.87109}
        }, {
            "nombre": "Patagones y Brown",
            "coords": {
            	"lng":-62.07872 ,
            	"lat":-38.87034}
        }, {
            "nombre": "Brown y Quintana",
            "coords": {
            	"lng":-62.07881 ,
            	"lat":-38.86934}
        }, {
            "nombre": "Av. Paso y Quintana",
            "coords": {
            	"lng":-62.08055 ,
            	"lat":-38.86950}
        }, {
            "nombre": "Av. Paso 1600",
            "coords": {
            	"lng":-62.08125 ,
            	"lat":-38.86737}
        }, {
            "nombre": "Av. Paso 1900",
            "coords": {
            	"lng":-62.08198 ,
            	"lat":-38.86475}
        }, {
            "nombre": "Av. Paso 2100",
            "coords": {
            	"lng":-62.08245 ,
            	"lat":-38.86289}
        }, {
            "nombre": "Av. Paso 2400",
            "coords": {
            	"lng":-62.0833 ,
            	"lat":-38.86003}
        }, {
            "nombre": "Av. Paso 2600",
            "coords": {
            	"lng":-62.08404 ,
            	"lat":-38.85709}
        }, {
            "nombre": "Av. Paso 2800",
            "coords": {
            	"lng":-62.08421 ,
            	"lat":-38.85651}
        }, {
            "nombre": "Av. Paso 3000",
            "coords": {
            	"lng":-62.08472 ,
            	"lat":-38.85458}
        }, {
            "nombre": "Av. Paso 3200",
            "coords": {
            	"lng":-62.08526 ,
            	"lat":-38.85267}
        }, {
            "nombre": "Av. Paso y Rio Bermejo",
            "coords": {
            	"lng":-62.08573 ,
            	"lat":-38.8509}
        }, {
            "nombre": "Av. Paso 3600",
            "coords": {
            	"lng":-62.08624 ,
            	"lat":-38.84903}
        }, {
            "nombre": "Av. Paso 3800",
            "coords": {
            	"lng":-62.08671 ,
            	"lat":-38.8472}
        }, {
            "nombre": "Río Juramento y Roca",
            "coords": {
            	"lng":-62.08976 ,
            	"lat":-38.84682}
        }, {
            "nombre": "Villa  del Mar",
            "coords": {
            	"lng":-62.09411 ,
            	"lat":-38.84261}
        }, {
            "nombre": "Villa Arias 1°",
            "coords": {
            	"lng":-62.10651 ,
            	"lat":-38.81308}
        }, {
            "nombre": "Villa Arias 2°",
            "coords": {
            	"lng":-62.10723 ,
            	"lat":-38.81066}
        }, {
            "nombre": "Villa Arias 3°",
            "coords": {
            	"lng":-62.10798 ,
            	"lat":-38.8080}
        }, {
            "nombre": "Barrio El Porvenir",
            "coords": {
            	"lng":-62.11338 ,
            	"lat":-38.7893}
        }, {
            "nombre": "Pago Chico",
            "coords": {
            	"lng":-62.11536 ,
            	"lat":-38.7814}
        }, {
            "nombre": "Agromax",
            "coords": {
            	"lng":-62.14762 ,
            	"lat":-38.7697}
        }, {
            "nombre": "Portal  del Este",
            "coords": {
            	"lng":-62.16648 ,
            	"lat":-38.7629}
        }, {
            "nombre": "Rafael Obligado 6000",
            "coords": {
            	"lng":-62.17471 ,
            	"lat":-38.7551}
        }, {
            "nombre": "Rafael Obligado 5800",
            "coords": {
            	"lng":-62.17823 ,
            	"lat":-38.7544}
        }, {
            "nombre": "Rafael Obligado 5100",
            "coords": {
            	"lng":-62.1887 ,
            	"lat":-38.7522}
        }, {
            "nombre": "Rafael Obligado 4800",
            "coords": {
            	"lng":-62.19662 ,
            	"lat":-38.7506}
        }, {
            "nombre": "Coca-Cola",
            "coords": {
            	"lng":-62.20783 ,
            	"lat":-38.7460}
        }, {
            "nombre": "Rincón 3900",
            "coords": {
            	"lng":-62.21304 ,
            	"lat":-38.7422}
        }, {
            "nombre": "Rincón 3700",
            "coords": {
            	"lng":-62.21496 ,
            	"lat":-38.7408}
        }, {
            "nombre": "Rincón 3500",
            "coords": {
            	"lng":-62.2168 ,
            	"lat":-38.7391}
        }, {
            "nombre": "Rincón 3300",
            "coords": {
            	"lng":-62.21876 ,
            	"lat":-38.7375}
        }, {
            "nombre": "Av. Lainez 2900",
            "coords": {
            	"lng":-62.22275 ,
            	"lat":-38.7331}
        }, {
            "nombre": "Av. Lainez 2700 ",
            "coords": {
            	"lng":-62.22503 ,
            	"lat":-38.7314}
        }, {
            "nombre": "Hospital Penna",
            "coords": {
            	"lng":-62.2281 ,
            	"lat":-38.7291}
        }, {
            "nombre": "Necochea 790",
            "coords": {
            	"lng":-62.23376 ,
            	"lat":-38.7322}
        }, {
            "nombre": "Necochea 562",
            "coords": {
            	"lng":-62.23565 ,
            	"lat":-38.73380}
        }, {
            "nombre": "Necochea 374",
            "coords": {
            	"lng":-62.23745 ,
            	"lat":-38.73524}
        }, {
            "nombre": "Necochea 78",
            "coords": {
            	"lng":-62.24194 ,
            	"lat":-38.73885}
        }, {
            "nombre": "Brown 2200",
            "coords": {
            	"lng":-62.24371 ,
            	"lat":-38.73921}
        }, {
            "nombre": "Terminal Bahia Blanca",
            "coords": {
            	"lng":-62.24836 ,
            	"lat":-38.73565}
        }, {
            "nombre": "Brown 1450",
            "coords": {
            	"lng":-62.25247 ,
            	"lat":-38.73195}
        }, {
            "nombre": "Brown 1144",
            "coords": {
            	"lng":-62.25530 ,
            	"lat":-38.72979}
        }, {
            "nombre": "Plaza 9  de Julio",
            "coords": {
            	"lng":-62.25845 ,
            	"lat":-38.72739}
        }, {
            "nombre": "Brown 680",
            "coords": {
            	"lng":-62.26081 ,
            	"lat":-38.72559}
        }, {
            "nombre": "Brown 426",
            "coords": {
            	"lng":-62.26350 ,
            	"lat":-38.72355}
        }, {
            "nombre": "McDonald's",
            "coords": {
            	"lng":-62.26519 ,
            	"lat":-38.72227}
        }, {
            "nombre": "Colon y Vieytes",
            "coords": {
            	"lng":-62.26876 ,
            	"lat":-38.71962}
        }, {
            "nombre": "Vieytes 235",
            "coords": {
            	"lng":-62.27088 ,
            	"lat":-38.71807}
        }, {
            "nombre": "Vieytes y Roca",
            "coords": {
            	"lng":-62.27276 ,
            	"lat":-38.71666}
        }, {
            "nombre": "11  de Abril 251",
            "coords": {
            	"lng":-62.26744 ,
            	"lat":-38.71229}
        }, {
            "nombre": "11 de Abril y Alem",
            "coords": {
            	"lng":-62.26410 ,
            	"lat":-38.70986}
        }, {
            "nombre": "12  de Octubre 423",
            "coords": {
            	"lng":-62.26263 ,
            	"lat":-38.70778}
        }, {
            "nombre": "Uns - 12 de Octubre",
            "coords": {
            	"lng":-62.26731 ,
            	"lat":-38.70198}
        }, {
            "nombre": "Parque de Mayo",
            "coords": {
            	"lng":-62.26864 ,
            	"lat":-38.70031}
        }


    ]

}